{
"type": "FeatureCollection",
"name": "Armenia with Marzes",
"crs": { "type": "name", "properties": { "name": "urn:ogc:def:crs:OGC:1.3:CRS84" } },
"features": [
{ "type": "Feature", "properties": { "Name": "Shirak" }, "geometry": { "type": "Point", "coordinates": [ 44.0, 40.0 ] } },
{ "type": "Feature", "properties": { "Name": "Lori" }, "geometry": { "type": "Point", "coordinates": [ 44.5, 41.0 ] } },
{ "type": "Feature", "properties": { "Name": "Tavush" }, "geometry": { "type": "Point", "coordinates": [ 45.1775, 40.9337 ] } },
{ "type": "Feature", "properties": { "Name": "Aragatsotn" }, "geometry": { "type": "Point", "coordinates": [ 44.2273, 40.6695 ] } },
{ "type": "Feature", "properties": { "Name": "Kotayk" }, "geometry": { "type": "Point", "coordinates": [ 44.6353, 40.3761 ] } },
{ "type": "Feature", "properties": { "Name": "Yerevan" }, "geometry": { "type": "Point", "coordinates": [ 44.5, 40.2 ] } },
{ "type": "Feature", "properties": { "Name": "Armavir" }, "geometry": { "type": "Point", "coordinates": [ 40.1305, 40.0712 ] } },
{ "type": "Feature", "properties": { "Name": "Ararat" }, "geometry": { "type": "Point", "coordinates": [ 44.5218, 39.9979 ] } },
{ "type": "Feature", "properties": { "Name": "Gegharkunik" }, "geometry": { "type": "Point", "coordinates": [ 45.2929, 40.4328 ] } },
{ "type": "Feature", "properties": { "Name": "Vayots Dzor" }, "geometry": { "type": "Point", "coordinates": [ 45.9442, 39.6447 ] } },
{ "type": "Feature", "properties": { "Name": "Syunik" }, "geometry": { "type": "Point", "coordinates": [ 45.84, 39.1 ] } }
]
}
